{
  "data": [
    {
      "year": "1861",
      "name": "A Corner of the Studio",
      "location": {
        "city": "Paris",
        "country": "France",
        "lat": "48.8588897",
        "lng": "2.3200410217200766"
      }
    },
    {
      "year": "1862",
      "name": "Hunting Trophies",
      "location": {
        "city": "Paris",
        "country": "France",
        "lat": "48.8588897",
        "lng": "2.3200410217200766"
      }
    },
    {
      "year": "1862 -1863",
      "name": "The Joint of Meat",
      "location": {
        "city": "Paris",
        "country": "France",
        "lat": "48.8588897",
        "lng": "2.3200410217200766"
      }
    },
    {
      "year": "1864",
      "name": "Rue de la Bovolle, Honfleur",
      "location": {
        "city": "Mannheim",
        "country": "Germany",
        "lat": "49.4892913",
        "lng": "8.4673098"
      }
    },
    {
      "year": "1864",
      "name": "Rue de la Bavolle, Honfleur",
      "location": {
        "city": "Boston",
        "country": "USA",
        "lat": "42.3554334",
        "lng": "-71.060511"
      }
    },
    {
      "year": "1864",
      "name": "Seaside at Honfleur",
      "location": {
        "city": "Los Angeles",
        "country": "USA",
        "lat": "34.0536909",
        "lng": "-118.242766"
      }
    },
    {
      "year": "1864",
      "name": "Spring Flowers",
      "location": {
        "city": "Cleveland",
        "country": "USA",
        "lat": "41.4996574",
        "lng": "-81.6936772"
      }
    },
    {
      "year": "c. 1864",
      "name": "The Coast of Normandy Viewed From Sainte-Adresse",
      "location": {
        "city": "San Francisco",
        "country": "USA",
        "lat": "37.7790262",
        "lng": "-122.419906"
      }
    },
    {
      "year": "c. 1864 -1869",
      "name": "Ice on the Seine at Bougival",
      "location": {
        "city": "Paris",
        "country": "France",
        "lat": "48.8588897",
        "lng": "2.3200410217200766"
      }
    },
    {
      "year": "1865",
      "name": "A Cart on the Snowy Road at Honfleur, Snow",
      "location": {
        "city": "Paris",
        "country": "France",
        "lat": "48.8588897",
        "lng": "2.3200410217200766"
      }
    },
    {
      "year": "1865",
      "name": "Clearing in the Woods",
      "location": {
        "city": "Detroit",
        "country": "USA",
        "lat": "42.3315509",
        "lng": "-83.0466403"
      }
    },
    {
      "year": "c. 1865",
      "name": "Cliffs and Sea",
      "location": {
        "city": "Chicago",
        "country": "USA",
        "lat": "41.8755616",
        "lng": "-87.6244212"
      }
    },
    {
      "year": "1865",
      "name": "Dejeuner sur L'Herbe (left panel)",
      "location": {
        "city": "Moscow",
        "country": "Russia",
        "lat": "55.7504461",
        "lng": "37.6174943"
      }
    },
    {
      "year": "1865",
      "name": "Haystacks near Chailly, Sunrise",
      "location": {
        "city": "San Diego",
        "country": "USA",
        "lat": "32.7174202",
        "lng": "-117.1627728"
      }
    },
    {
      "year": "1865",
      "name": "Le D\u00e9jeuner sur l'Herbe",
      "location": {
        "city": "Moscow",
        "country": "Russia",
        "lat": "55.7504461",
        "lng": "37.6174943"
      }
    },
    {
      "year": "1865",
      "name": "Le Pave de Chailly",
      "location": {
        "city": "Paris",
        "country": "France",
        "lat": "48.8588897",
        "lng": "2.3200410217200766"
      }
    },
    {
      "year": "c. 1865",
      "name": "The Green Wave",
      "location": {
        "city": "New York City",
        "country": "USA",
        "lat": "40.7127281",
        "lng": "-74.0060152"
      }
    },
    {
      "year": "1865",
      "name": "The Promenaders or Bazille and Camille",
      "location": {
        "city": "Washington DC",
        "country": "USA",
        "lat": "38.8950368",
        "lng": "-77.0365427"
      }
    },
    {
      "year": "1866",
      "name": "Camille with a Small Dog",
      "location": {
        "city": "Zurich",
        "country": "Switzerland",
        "lat": "47.3744489",
        "lng": "8.5410422"
      }
    },
    {
      "year": "1866",
      "name": "Flowering Garden at Sainte-Adresse",
      "location": {
        "city": "Paris",
        "country": "France",
        "lat": "48.8588897",
        "lng": "2.3200410217200766"
      }
    },
    {
      "year": "1866",
      "name": "Jar of Peaches",
      "location": {
        "city": "Dresden",
        "country": "Germany",
        "lat": "51.0493286",
        "lng": "13.7381437"
      }
    },
    {
      "year": "1866",
      "name": "Woman in a Green Dress",
      "location": {
        "city": "Bremen",
        "country": "Germany",
        "lat": "53.0758196",
        "lng": "8.8071646"
      }
    },
    {
      "year": "1866",
      "name": "Women in the Garden",
      "location": {
        "city": "Paris",
        "country": "France",
        "lat": "48.8588897",
        "lng": "2.3200410217200766"
      }
    },
    {
      "year": "c. 1866",
      "name": "Fishing Boats at Sea",
      "location": {
        "city": "Farmington",
        "country": "USA",
        "lat": "44.6402434",
        "lng": "-93.1435497"
      }
    },
    {
      "year": "1867",
      "name": "Beach at Sainte-Adresse",
      "location": {
        "city": "New York",
        "country": "USA",
        "lat": "40.7127281",
        "lng": "-74.0060152"
      }
    },
    {
      "year": "1867",
      "name": "Jeanne-Marguerite Lecadre in the Garden",
      "location": {
        "city": "St. Petersburg",
        "country": "Russia",
        "lat": "27.7703796",
        "lng": "-82.6695085"
      }
    },
    {
      "year": "1867",
      "name": "Quai de Louvre, Paris",
      "location": {
        "city": "The Hague",
        "country": "Netherlands",
        "lat": "52.0799838",
        "lng": "4.3113461"
      }
    },
    {
      "year": "1867",
      "name": "Road by Saint-Sim\u00e9on Farm in Winter",
      "location": {
        "city": "Paris",
        "country": "France",
        "lat": "48.8588897",
        "lng": "2.3200410217200766"
      }
    },
    {
      "year": "1867",
      "name": "Seascape, Storm",
      "location": {
        "city": "Williamstown, MA",
        "country": "USA",
        "lat": "42.7135472",
        "lng": "-73.2094566"
      }
    },
    {
      "year": "1867",
      "name": "The Regatta at Sainte-Adresse",
      "location": {
        "city": "New York City",
        "country": "USA",
        "lat": "40.7127281",
        "lng": "-74.0060152"
      }
    },
    {
      "year": "1867",
      "name": "The Beach at Sainte-Adresse",
      "location": {
        "city": "Chicago",
        "country": "USA",
        "lat": "41.8755616",
        "lng": "-87.6244212"
      }
    },
    {
      "year": "1867",
      "name": "Terrace at Sainte-Addresse",
      "location": {
        "city": "New York",
        "country": "USA",
        "lat": "40.7127281",
        "lng": "-74.0060152"
      }
    },
    {
      "year": "1867",
      "name": "The Beach at Sainte-Adresse",
      "location": {
        "city": "New York",
        "country": "USA",
        "lat": "40.7127281",
        "lng": "-74.0060152"
      }
    },
    {
      "year": "1867",
      "name": "The Garden of the Princess, Louvre",
      "location": {
        "city": "Oberlin",
        "country": "USA",
        "lat": "41.2939386",
        "lng": "-82.2173786"
      }
    },
    {
      "year": "1867-8",
      "name": "The Artist's Son Asleep",
      "location": {
        "city": "Copenhagen",
        "country": "Denmark",
        "lat": "55.6867243",
        "lng": "12.5700724"
      }
    },
    {
      "year": "1868",
      "name": "Portrait of Madame Louis-Joachim Gaudibert",
      "location": {
        "city": "Paris",
        "country": "France",
        "lat": "48.8588897",
        "lng": "2.3200410217200766"
      }
    },
    {
      "year": "1868",
      "name": "River Scene at Bennecourt",
      "location": {
        "city": "Chicago",
        "country": "USA",
        "lat": "41.8755616",
        "lng": "-87.6244212"
      }
    },
    {
      "year": "1868",
      "name": "The Luncheon",
      "location": {
        "city": "Frankfurt",
        "country": "Germany",
        "lat": "50.1106444",
        "lng": "8.6820917"
      }
    },
    {
      "year": "1868",
      "name": "The River",
      "location": {
        "city": "Chicago",
        "country": "USA",
        "lat": "41.8755616",
        "lng": "-87.6244212"
      }
    },
    {
      "year": "c. 1868",
      "name": "Pr\u00e8s d'\u00c9tretat",
      "location": {
        "city": "Jerusalem",
        "country": "Israel",
        "lat": "31.79592425",
        "lng": "35.21198075969497"
      }
    },
    {
      "year": "c. 1868 -1869",
      "name": "La Porte d'Amont, \u00c9tretat",
      "location": {
        "city": "Boston",
        "country": "USA",
        "lat": "42.3554334",
        "lng": "-71.060511"
      }
    },
    {
      "year": "1868 -1869",
      "name": "Stormy Seas at \u00c9tretat",
      "location": {
        "city": "Lyon",
        "country": "France",
        "lat": "45.7578137",
        "lng": "4.8320114"
      }
    },
    {
      "year": "1868 -1869",
      "name": "The Dinner",
      "location": {
        "city": "Zurich",
        "country": "Switzerland",
        "lat": "47.3744489",
        "lng": "8.5410422"
      }
    },
    {
      "year": "1869",
      "name": "Bathers at La Grenouill\u00e8re",
      "location": {
        "city": "London",
        "country": "U.K.",
        "lat": "51.5073219",
        "lng": "-0.1276474"
      }
    },
    {
      "year": "1869",
      "name": "La Grenouill\u00e8re",
      "location": {
        "city": "New York",
        "country": "USA",
        "lat": "40.7127281",
        "lng": "-74.0060152"
      }
    },
    {
      "year": "1869",
      "name": "The Bridge at Bougival",
      "location": {
        "city": "Manchester",
        "country": "USA",
        "lat": "53.4794892",
        "lng": "-2.2451148"
      }
    },
    {
      "year": "1870",
      "name": "Camille on the Beach",
      "location": {
        "city": "Paris",
        "country": "France",
        "lat": "48.8588897",
        "lng": "2.3200410217200766"
      }
    },
    {
      "year": "1870",
      "name": "The Beach at Trouville",
      "location": {
        "city": "Hartford",
        "country": "USA",
        "lat": "41.764582",
        "lng": "-72.6908547"
      }
    },
    {
      "year": "1870",
      "name": "The Beach at Trouville",
      "location": {
        "city": "London",
        "country": "UK",
        "lat": "51.5073219",
        "lng": "-0.1276474"
      }
    },
    {
      "year": "1870",
      "name": "The Hotel des Roches Noires at Trouville",
      "location": {
        "city": "Paris",
        "country": "France",
        "lat": "48.8588897",
        "lng": "2.3200410217200766"
      }
    },
    {
      "year": "1870",
      "name": "The Seine at Bougival in The Evening",
      "location": {
        "city": "Northampton",
        "country": "USA",
        "lat": "52.23433665",
        "lng": "-0.9028072768185829"
      }
    },
    {
      "year": "1870",
      "name": "Train in the Country",
      "location": {
        "city": "Paris",
        "country": "France",
        "lat": "48.8588897",
        "lng": "2.3200410217200766"
      }
    },
    {
      "year": "c. 1870",
      "name": "Red Mullets",
      "location": {
        "city": "Cambridge",
        "country": "USA",
        "lat": "52.197584649999996",
        "lng": "0.13915373736874398"
      }
    },
    {
      "year": "1871",
      "name": "A Mill Near Zaandam",
      "location": {
        "city": "Oxford",
        "country": "UK",
        "lat": "51.7520131",
        "lng": "-1.2578499"
      }
    },
    {
      "year": "1871",
      "name": "Boats in the Port of London",
      "location": {
        "city": "Cardiff",
        "country": "UK",
        "lat": "51.4816546",
        "lng": "-3.1791934"
      }
    },
    {
      "year": "1871",
      "name": "Hyde Park",
      "location": {
        "city": "Rhode Island School of Design",
        "country": "USA",
        "lat": "41.8262294",
        "lng": "-71.4081213"
      }
    },
    {
      "year": "1871",
      "name": "The Thames below Westminster",
      "location": {
        "city": "London",
        "country": "UK",
        "lat": "51.5073219",
        "lng": "-0.1276474"
      }
    },
    {
      "year": "1871",
      "name": "The Voorzan",
      "location": {
        "city": "Maastricht",
        "country": "Netherlands",
        "lat": "50.8512438",
        "lng": "5.6909768"
      }
    },
    {
      "year": "1871",
      "name": "The Windmill, Amsterdam",
      "location": {
        "city": "Houston",
        "country": "USA",
        "lat": "29.7589382",
        "lng": "-95.3676974"
      }
    },
    {
      "year": "1871",
      "name": "View of the Voorzaan",
      "location": {
        "city": "Paris",
        "country": "France",
        "lat": "48.8588897",
        "lng": "2.3200410217200766"
      }
    },
    {
      "year": "\n\n\n\n        1871\n",
      "name": "Zaandam",
      "location": {
        "city": "Paris",
        "country": "France",
        "lat": "48.8588897",
        "lng": "2.3200410217200766"
      }
    },
    {
      "year": "c. 1871",
      "name": "Madame Monet on the Sofa",
      "location": {
        "city": "Paris",
        "country": "France",
        "lat": "48.8588897",
        "lng": "2.3200410217200766"
      }
    },
    {
      "year": "1872",
      "name": "Argenteuil",
      "location": {
        "city": "Paris",
        "country": "France",
        "lat": "48.8588897",
        "lng": "2.3200410217200766"
      }
    },
    {
      "year": "1872",
      "name": "Argenteuil",
      "location": {
        "city": "Washington, DC",
        "country": "USA",
        "lat": "38.8950368",
        "lng": "-77.0365427"
      }
    },
    {
      "year": "1872",
      "name": "Carri\u00e8res-Saint-Denis",
      "location": {
        "city": "Paris",
        "country": "France",
        "lat": "48.8588897",
        "lng": "2.3200410217200766"
      }
    },
    {
      "year": "1872",
      "name": "Jean Monet on his Hobby Horse",
      "location": {
        "city": "New York",
        "country": "USA",
        "lat": "40.7127281",
        "lng": "-74.0060152"
      }
    },
    {
      "year": "1872",
      "name": "Pleasure Boats, Argenteuil",
      "location": {
        "city": "Paris",
        "country": "France",
        "lat": "48.8588897",
        "lng": "2.3200410217200766"
      }
    },
    {
      "year": "1872",
      "name": "Still Life with a Melon",
      "location": {
        "city": "Lisbon",
        "country": "Portugal",
        "lat": "38.7077507",
        "lng": "-9.1365919"
      }
    },
    {
      "year": "1872",
      "name": "The Marina at Argenteuil",
      "location": {
        "city": "Paris",
        "country": "France",
        "lat": "48.8588897",
        "lng": "2.3200410217200766"
      }
    },
    {
      "year": "1872",
      "name": "The Reader or Springtime",
      "location": {
        "city": "Baltimore",
        "country": "USA",
        "lat": "39.2908816",
        "lng": "-76.610759"
      }
    },
    {
      "year": "1872",
      "name": "The Robec Stream at Rouen",
      "location": {
        "city": "Paris",
        "country": "France",
        "lat": "48.8588897",
        "lng": "2.3200410217200766"
      }
    },
    {
      "year": "c. 1872",
      "name": "Regatta at Argenteuil",
      "location": {
        "city": "Paris",
        "country": "France",
        "lat": "48.8588897",
        "lng": "2.3200410217200766"
      }
    },
    {
      "year": "1873",
      "name": "Autumn Effect at Argenteuil",
      "location": {
        "city": "London",
        "country": "UK",
        "lat": "51.5073219",
        "lng": "-0.1276474"
      }
    },
    {
      "year": "1873",
      "name": "Apple Trees in Bloom",
      "location": {
        "city": "New York City",
        "country": "USA",
        "lat": "40.7127281",
        "lng": "-74.0060152"
      }
    },
    {
      "year": "1873",
      "name": "Beneath the Lilacs",
      "location": {
        "city": "Paris",
        "country": "USA",
        "lat": "48.8588897",
        "lng": "2.3200410217200766"
      }
    },
    {
      "year": "1873",
      "name": "Camille at her Window, Argenteuil",
      "location": {
        "city": "Richmond",
        "country": "USA",
        "lat": "37.5385087",
        "lng": "-77.43428"
      }
    },
    {
      "year": "1873",
      "name": "Impression, Sunrise",
      "location": {
        "city": "Paris",
        "country": "France",
        "lat": "48.8588897",
        "lng": "2.3200410217200766"
      }
    },
    {
      "year": "1873",
      "name": "Mademoiselle Bonnet",
      "location": {
        "city": "Merion",
        "country": "USA",
        "lat": "32.3473263",
        "lng": "-84.5282597"
      }
    },
    {
      "year": "1873",
      "name": "Poppy Field near Argenteuil",
      "location": {
        "city": "Paris",
        "country": "France",
        "lat": "48.8588897",
        "lng": "2.3200410217200766"
      }
    },
    {
      "year": "1873",
      "name": "Promenade near Argenteuil",
      "location": {
        "city": "Paris",
        "country": "France",
        "lat": "48.8588897",
        "lng": "2.3200410217200766"
      }
    },
    {
      "year": "1873",
      "name": "Ships in a Harbour",
      "location": {
        "city": "Boston",
        "country": "USA",
        "lat": "42.3554334",
        "lng": "-71.060511"
      }
    },
    {
      "year": "1873",
      "name": "The Artist's House at Argenteuil",
      "location": {
        "city": "Chicago",
        "country": "USA",
        "lat": "41.8755616",
        "lng": "-87.6244212"
      }
    },
    {
      "year": "1873",
      "name": "The Luncheon",
      "location": {
        "city": "Paris",
        "country": "France",
        "lat": "48.8588897",
        "lng": "2.3200410217200766"
      }
    },
    {
      "year": "1873",
      "name": "The Museum at Le Havre",
      "location": {
        "city": "London",
        "country": "UK",
        "lat": "51.5073219",
        "lng": "-0.1276474"
      }
    },
    {
      "year": "1873",
      "name": "The Red Kerchief, Portrait of Madame Monet",
      "location": {
        "city": "Cleveland",
        "country": "USA",
        "lat": "41.4996574",
        "lng": "-81.6936772"
      }
    },
    {
      "year": "1873",
      "name": "The Seine at Argenteuil",
      "location": {
        "city": "Paris",
        "country": "France",
        "lat": "48.8588897",
        "lng": "2.3200410217200766"
      }
    },
    {
      "year": "1873 -1874",
      "name": "Boulevard des Capucines",
      "location": {
        "city": "Kansas City",
        "country": "USA",
        "lat": "39.100105",
        "lng": "-94.5781416"
      }
    },
    {
      "year": "1874",
      "name": "Boats, Regatta at Argenteuil",
      "location": {
        "city": "Paris",
        "country": "France",
        "lat": "48.8588897",
        "lng": "2.3200410217200766"
      }
    },
    {
      "year": "1874",
      "name": "Marine View\u2014Sunset",
      "location": {
        "city": "Philadelphia",
        "country": "USA",
        "lat": "39.9527237",
        "lng": "-75.1635262"
      }
    },
    {
      "year": "1874",
      "name": "Port of Le Havre",
      "location": {
        "city": "Philadelphia",
        "country": "USA",
        "lat": "39.9527237",
        "lng": "-75.1635262"
      }
    },
    {
      "year": "1874",
      "name": "Railroad Bridge, Argenteuil",
      "location": {
        "city": "Philadelphia",
        "country": "USA",
        "lat": "39.9527237",
        "lng": "-75.1635262"
      }
    },
    {
      "year": "1874",
      "name": "Snow at Argenteuil",
      "location": {
        "city": "Boston",
        "country": "USA",
        "lat": "42.3554334",
        "lng": "-71.060511"
      }
    },
    {
      "year": "1874",
      "name": "The Bridge at Argenteuil",
      "location": {
        "city": "Washington DC",
        "country": "USA",
        "lat": "38.8950368",
        "lng": "-77.0365427"
      }
    },
    {
      "year": "1874",
      "name": "The Bridge at Argenteuil",
      "location": {
        "city": "Paris",
        "country": "France",
        "lat": "48.8588897",
        "lng": "2.3200410217200766"
      }
    },
    {
      "year": "1874",
      "name": "The Railway Bridge, Argenteuil",
      "location": {
        "city": "Paris",
        "country": "France",
        "lat": "48.8588897",
        "lng": "2.3200410217200766"
      }
    },
    {
      "year": "1874",
      "name": "The Railway Bridge at Argenteuil",
      "location": {
        "city": "Paris",
        "country": "France",
        "lat": "48.8588897",
        "lng": "2.3200410217200766"
      }
    },
    {
      "year": "1874",
      "name": "The Studio Boat",
      "location": {
        "city": "Otterolo",
        "country": "Netherlands",
        "lat": 0,
        "lng": 0
      }
    },
    {
      "year": "c. 1874",
      "name": "The Zuiderkerk, Amsterdam (Looking up at the Groenburgwal)",
      "location": {
        "city": "Philadelphia",
        "country": "USA",
        "lat": "39.9527237",
        "lng": "-75.1635262"
      }
    },
    {
      "year": "1875",
      "name": "Boulevard St-Denis, Argenteuil, In Winter",
      "location": {
        "city": "Boston",
        "country": "USA",
        "lat": "42.3554334",
        "lng": "-71.060511"
      }
    },
    {
      "year": "1875",
      "name": "Camille Embroidering",
      "location": {
        "city": "Merion",
        "country": "USA",
        "lat": "32.3473263",
        "lng": "-84.5282597"
      }
    },
    {
      "year": "1875",
      "name": "Corner of an Apartment at Argenteuil",
      "location": {
        "city": "Paris",
        "country": "France",
        "lat": "48.8588897",
        "lng": "2.3200410217200766"
      }
    },
    {
      "year": "1875",
      "name": "Marine View with a Sunset",
      "location": {
        "city": "Philadelphia",
        "country": "USA",
        "lat": "39.9527237",
        "lng": "-75.1635262"
      }
    },
    {
      "year": "1875",
      "name": "Red Boats, Argenteuil",
      "location": {
        "city": "Boston",
        "country": "USA",
        "lat": "42.3554334",
        "lng": "-71.060511"
      }
    },
    {
      "year": "1875",
      "name": "Snow Effect at Sunset (Argenteuil under the Snow)",
      "location": {
        "city": "Paris",
        "country": "France",
        "lat": "48.8588897",
        "lng": "2.3200410217200766"
      }
    },
    {
      "year": "1875",
      "name": "Snow Effect, Sunset",
      "location": {
        "city": "Paris",
        "country": "France",
        "lat": "48.8588897",
        "lng": "2.3200410217200766"
      }
    },
    {
      "year": "1875",
      "name": "Spring",
      "location": {
        "city": "Johannesburg",
        "country": "South Africa",
        "lat": "-26.205",
        "lng": "28.049722"
      }
    },
    {
      "year": "1875",
      "name": "The Boulevard Pontoise at Argenteuil",
      "location": {
        "city": "Basel",
        "country": "Switzerland",
        "lat": "47.5581077",
        "lng": "7.5878261"
      }
    },
    {
      "year": "1875",
      "name": "The Coal Workers",
      "location": {
        "city": "Paris",
        "country": "France",
        "lat": "48.8588897",
        "lng": "2.3200410217200766"
      }
    },
    {
      "year": "1875",
      "name": "The Tuileries",
      "location": {
        "city": "Paris",
        "country": "France",
        "lat": "48.8588897",
        "lng": "2.3200410217200766"
      }
    },
    {
      "year": "1875",
      "name": "The Tuileries Garden, Study",
      "location": {
        "city": "Paris",
        "country": "France",
        "lat": "48.8588897",
        "lng": "2.3200410217200766"
      }
    },
    {
      "year": "1875",
      "name": "Train in the Snow or The Locomotive",
      "location": {
        "city": "Paris",
        "country": "France",
        "lat": "48.8588897",
        "lng": "2.3200410217200766"
      }
    },
    {
      "year": "1875",
      "name": "Woman with a Parasol Madame Monet and Her Son",
      "location": {
        "city": "Washington DC",
        "country": "USA",
        "lat": "38.8950368",
        "lng": "-77.0365427"
      }
    },
    {
      "year": "1875",
      "name": "Young Girls in a Bed of Dahlias",
      "location": {
        "city": "Prague",
        "country": "Czech Republic",
        "lat": "50.0596288",
        "lng": "14.446459273258009"
      }
    },
    {
      "year": "c. 1875",
      "name": "Poplars near Argenteuil",
      "location": {
        "city": "Boston",
        "country": "USA",
        "lat": "42.3554334",
        "lng": "-71.060511"
      }
    },
    {
      "year": "c. 1875",
      "name": "Tow-Path at Argenteuil",
      "location": {
        "city": "Buffalo",
        "country": "USA",
        "lat": "42.8867166",
        "lng": "-78.8783922"
      }
    },
    {
      "year": "c. 1875",
      "name": "Red Boats, Argenteuil",
      "location": {
        "city": "Paris",
        "country": "France",
        "lat": "48.8588897",
        "lng": "2.3200410217200766"
      }
    },
    {
      "year": "1876",
      "name": "Gladioli",
      "location": {
        "city": "Detroit",
        "country": "USA",
        "lat": "42.3315509",
        "lng": "-83.0466403"
      }
    },
    {
      "year": "1876",
      "name": "La Japonaise",
      "location": {
        "city": "Boston",
        "country": "USA",
        "lat": "42.3554334",
        "lng": "-71.060511"
      }
    },
    {
      "year": "1876",
      "name": "The Hunt",
      "location": {
        "city": "Paris",
        "country": "France",
        "lat": "48.8588897",
        "lng": "2.3200410217200766"
      }
    },
    {
      "year": "1876",
      "name": "The Parc Monceau, Paris",
      "location": {
        "city": "New York City",
        "country": "USA",
        "lat": "40.7127281",
        "lng": "-74.0060152"
      }
    },
    {
      "year": "1876",
      "name": "View over the Tuileries Gardens",
      "location": {
        "city": "Paris",
        "country": "France",
        "lat": "48.8588897",
        "lng": "2.3200410217200766"
      }
    },
    {
      "year": "1876 -1877",
      "name": "A Corner of the Garden at Montgeron",
      "location": {
        "city": "Moscow",
        "country": "Russia",
        "lat": "55.7504461",
        "lng": "37.6174943"
      }
    },
    {
      "year": "1877",
      "name": "Outside the Gare Saint-Lazare, The Signal",
      "location": {
        "city": "Hannover",
        "country": "Germany",
        "lat": "52.3744779",
        "lng": "9.7385532"
      }
    },
    {
      "year": "1877",
      "name": "The Gare Saint-Lazare, Arrival of a Train",
      "location": {
        "city": "Cambridge",
        "country": "USA",
        "lat": "52.197584649999996",
        "lng": "0.13915373736874398"
      }
    },
    {
      "year": "1877",
      "name": "The Gare St. Lazare",
      "location": {
        "city": "Paris",
        "country": "France",
        "lat": "48.8588897",
        "lng": "2.3200410217200766"
      }
    },
    {
      "year": "1877",
      "name": "The Gare St. Lazare",
      "location": {
        "city": "London",
        "country": "UK",
        "lat": "51.5073219",
        "lng": "-0.1276474"
      }
    },
    {
      "year": "1877",
      "name": "The Pont de L'Europe, Gare St. Lazare",
      "location": {
        "city": "Paris",
        "country": "France",
        "lat": "48.8588897",
        "lng": "2.3200410217200766"
      }
    },
    {
      "year": "1877",
      "name": "The Turkeys at the Chateau de Rottembourg",
      "location": {
        "city": "Paris",
        "country": "France",
        "lat": "48.8588897",
        "lng": "2.3200410217200766"
      }
    },
    {
      "year": "1878",
      "name": "Lavacourt under Snow",
      "location": {
        "city": "London",
        "country": "UK",
        "lat": "51.5073219",
        "lng": "-0.1276474"
      }
    },
    {
      "year": "1878",
      "name": "The Banks of the Seine or Spring through the Trees",
      "location": {
        "city": "Paris",
        "country": "France",
        "lat": "48.8588897",
        "lng": "2.3200410217200766"
      }
    },
    {
      "year": "1878",
      "name": "The Rue Montorgueil",
      "location": {
        "city": "Paris",
        "country": "France",
        "lat": "48.8588897",
        "lng": "2.3200410217200766"
      }
    },
    {
      "year": "1878",
      "name": "The Rue Saint-Denis, Celebration of June 30, 1878",
      "location": {
        "city": "Rouen",
        "country": "France",
        "lat": "49.4404591",
        "lng": "1.0939658"
      }
    },
    {
      "year": "1878 -1879",
      "name": "Michel Monet as a Baby",
      "location": {
        "city": "Paris",
        "country": "France",
        "lat": "48.8588897",
        "lng": "2.3200410217200766"
      }
    },
    {
      "year": "1878 -1879",
      "name": "The Church at V\u00e9theuil under Snow",
      "location": {
        "city": "Paris",
        "country": "France",
        "lat": "48.8588897",
        "lng": "2.3200410217200766"
      }
    },
    {
      "year": "1879",
      "name": "Camille on her Deathbed",
      "location": {
        "city": "Paris",
        "country": "France",
        "lat": "48.8588897",
        "lng": "2.3200410217200766"
      }
    },
    {
      "year": "1879",
      "name": "Landscape, V\u00e9theuil",
      "location": {
        "city": "Paris",
        "country": "France",
        "lat": "48.8588897",
        "lng": "2.3200410217200766"
      }
    },
    {
      "year": "1879",
      "name": "Plum Trees in Blossom",
      "location": {
        "city": "Budapest",
        "country": "Hungary",
        "lat": "47.4979937",
        "lng": "19.0403594"
      }
    },
    {
      "year": "1879",
      "name": "Riverbank at Lavacourt",
      "location": {
        "city": "Oklahoma City",
        "country": "USA",
        "lat": "35.4729886",
        "lng": "-97.5170536"
      }
    },
    {
      "year": "1879",
      "name": "The Church at V\u00e9theuil",
      "location": {
        "city": "Paris",
        "country": "France",
        "lat": "48.8588897",
        "lng": "2.3200410217200766"
      }
    },
    {
      "year": "1879",
      "name": "The Seine at V\u00e9theuil",
      "location": {
        "city": "Paris",
        "country": "France",
        "lat": "48.8588897",
        "lng": "2.3200410217200766"
      }
    },
    {
      "year": "1879",
      "name": "V\u00e9theuil",
      "location": {
        "city": "Chicago",
        "country": "USA",
        "lat": "41.8755616",
        "lng": "-87.6244212"
      }
    },
    {
      "year": "1879",
      "name": "V\u00e9theuil in the Fog",
      "location": {
        "city": "Paris",
        "country": "France",
        "lat": "48.8588897",
        "lng": "2.3200410217200766"
      }
    },
    {
      "year": "1879",
      "name": "V\u00e9theuil in Winter",
      "location": {
        "city": "New York City",
        "country": "USA",
        "lat": "40.7127281",
        "lng": "-74.0060152"
      }
    },
    {
      "year": "1879",
      "name": "V\u00e9theuil, View from Lavacourt",
      "location": {
        "city": "Paris",
        "country": "France",
        "lat": "48.8588897",
        "lng": "2.3200410217200766"
      }
    },
    {
      "year": "1879 -1880",
      "name": "Snowy Landscape at Twilight",
      "location": {
        "city": "La Havre",
        "country": "France",
        "lat": "50.4605733",
        "lng": "4.0375123779054976"
      }
    },
    {
      "year": "1879 -1880",
      "name": "The Seine at V\u00e9theuil",
      "location": {
        "city": "Paris",
        "country": "France",
        "lat": "48.8588897",
        "lng": "2.3200410217200766"
      }
    },
    {
      "year": "1880",
      "name": "Banks of the Seine, V\u00e9theuil",
      "location": {
        "city": "Washington DC",
        "country": "USA",
        "lat": "38.8950368",
        "lng": "-77.0365427"
      }
    },
    {
      "year": "1880",
      "name": "Entrance to the Village of V\u00e9theuil in Winter",
      "location": {
        "city": "Boston",
        "country": "USA",
        "lat": "42.3554334",
        "lng": "-71.060511"
      }
    },
    {
      "year": "1880",
      "name": "Frost near V\u00e9theuil",
      "location": {
        "city": "Paris",
        "country": "France",
        "lat": "48.8588897",
        "lng": "2.3200410217200766"
      }
    },
    {
      "year": "1880",
      "name": "Jean Monet",
      "location": {
        "city": "Paris",
        "country": "France",
        "lat": "48.8588897",
        "lng": "2.3200410217200766"
      }
    },
    {
      "year": "1880",
      "name": "Lavacourt",
      "location": {
        "city": "Dallas",
        "country": "Texas",
        "lat": "32.7762719",
        "lng": "-96.7968559"
      }
    },
    {
      "year": "1880",
      "name": "Michel Monet Wearing a Bobble Hat",
      "location": {
        "city": "Paris",
        "country": "France",
        "lat": "48.8588897",
        "lng": "2.3200410217200766"
      }
    },
    {
      "year": "1880",
      "name": "Monsieur Coquerat",
      "location": {
        "city": "Merion",
        "country": "USA",
        "lat": "32.3473263",
        "lng": "-84.5282597"
      }
    },
    {
      "year": "1880",
      "name": "Path through the Poppies, \u00cele Saint-Martin, V\u00e9theuil",
      "location": {
        "city": "New York",
        "country": "USA",
        "lat": "40.7127281",
        "lng": "-74.0060152"
      }
    },
    {
      "year": "1880",
      "name": "Still Life with Pears and Grapes",
      "location": {
        "city": "Hamburg",
        "country": "Germany",
        "lat": "53.550341",
        "lng": "10.000654"
      }
    },
    {
      "year": "1880",
      "name": "Sunset on the Seine at Lavacourt, Winter Effect",
      "location": {
        "city": "Paris",
        "country": "France",
        "lat": "48.8588897",
        "lng": "2.3200410217200766"
      }
    },
    {
      "year": "1880",
      "name": "The Artist's Garden at V\u00e9theuil",
      "location": {
        "city": "Washington DC",
        "country": "USA",
        "lat": "38.8950368",
        "lng": "-77.0365427"
      }
    },
    {
      "year": "1880",
      "name": "The Break Up of Ice, Grey Weather",
      "location": {
        "city": "Lisbon",
        "country": "Portugal",
        "lat": "38.7077507",
        "lng": "-9.1365919"
      }
    },
    {
      "year": "1880",
      "name": "The Church at V\u00e9theuil",
      "location": {
        "city": "Hampshire",
        "country": "UK",
        "lat": "51.04483545",
        "lng": "-1.2434093597173146"
      }
    },
    {
      "year": "1880",
      "name": "The Floating Ice",
      "location": {
        "city": "Shelburne, VT",
        "country": "USA",
        "lat": "44.3783486",
        "lng": "-73.2276183"
      }
    },
    {
      "year": "1880",
      "name": "The Frost near V\u00e9theuil",
      "location": {
        "city": "Paris",
        "country": "France",
        "lat": "48.8588897",
        "lng": "2.3200410217200766"
      }
    },
    {
      "year": "1880",
      "name": "The Thaw on the Seine, near V\u00e9theuil",
      "location": {
        "city": "Paris",
        "country": "France",
        "lat": "48.8588897",
        "lng": "2.3200410217200766"
      }
    },
    {
      "year": "1880",
      "name": "View of the Seine, Lavacourt",
      "location": {
        "city": "Boston",
        "country": "USA",
        "lat": "42.3554334",
        "lng": "-71.060511"
      }
    },
    {
      "year": "c. 1880",
      "name": "Landscape at V\u00e9theuil",
      "location": {
        "city": "Kelvingrove",
        "country": "Scotland",
        "lat": "53.966398",
        "lng": "-0.8330483399290134"
      }
    },
    {
      "year": "1880",
      "name": "V\u00e9theuil in Summer",
      "location": {
        "city": "New York City",
        "country": "USA",
        "lat": "40.7127281",
        "lng": "-74.0060152"
      }
    },
    {
      "year": "c. 1880",
      "name": "Portrait of Blanche Hosched\u00e9 as a Young Girl",
      "location": {
        "city": "Rouen",
        "country": "France",
        "lat": "49.4404591",
        "lng": "1.0939658"
      }
    },
    {
      "year": "1880 -1882",
      "name": "Springtime",
      "location": {
        "city": "Lyon",
        "country": "France",
        "lat": "45.7578137",
        "lng": "4.8320114"
      }
    },
    {
      "year": "1881",
      "name": "Boat Lying at Low Tide",
      "location": {
        "city": "Tokyo",
        "country": "Japan",
        "lat": "35.6828387",
        "lng": "139.7594549"
      }
    },
    {
      "year": "1881",
      "name": "Garden at V\u00e9theuil",
      "location": {
        "city": "Washington DC",
        "country": "USA",
        "lat": "38.8950368",
        "lng": "-77.0365427"
      }
    },
    {
      "year": "1881",
      "name": "Sea Coast at Trouville",
      "location": {
        "city": "Boston",
        "country": "USA",
        "lat": "42.3554334",
        "lng": "-71.060511"
      }
    },
    {
      "year": "1881",
      "name": "Sunflowers",
      "location": {
        "city": "New York",
        "country": "USA",
        "lat": "40.7127281",
        "lng": "-74.0060152"
      }
    },
    {
      "year": "c. 1881",
      "name": "The Village of V\u00e9theuil",
      "location": {
        "city": "Rouen",
        "country": "France",
        "lat": "49.4404591",
        "lng": "1.0939658"
      }
    },
    {
      "year": "c. 1881 -1882",
      "name": "Vase of Flowers",
      "location": {
        "city": "London",
        "country": "UK",
        "lat": "51.5073219",
        "lng": "-0.1276474"
      }
    },
    {
      "year": "1881",
      "name": "Waves Breaking",
      "location": {
        "city": "San Francisco",
        "country": "USA",
        "lat": "37.7790262",
        "lng": "-122.419906"
      }
    },
    {
      "year": "1882",
      "name": "Chemin de la Cav\u00e9e, Pourville",
      "location": {
        "city": "Boston",
        "country": "USA",
        "lat": "42.3554334",
        "lng": "-71.060511"
      }
    },
    {
      "year": "1882",
      "name": "Chrysanthemums",
      "location": {
        "city": "New York",
        "country": "USA",
        "lat": "40.7127281",
        "lng": "-74.0060152"
      }
    },
    {
      "year": "1882",
      "name": "Church at Varengeville, Cloudy Weather (or Church on the Cliff,\n          Varengeville)",
      "location": {
        "city": "Louisville",
        "country": "USA",
        "lat": "38.2542376",
        "lng": "-85.759407"
      }
    },
    {
      "year": "1882",
      "name": "Cliff at Dieppe",
      "location": {
        "city": "Zurich",
        "country": "Switzerland",
        "lat": "47.3744489",
        "lng": "8.5410422"
      }
    },
    {
      "year": "1882",
      "name": "Cliff Walk at Pourville",
      "location": {
        "city": "Chicago",
        "country": "USA",
        "lat": "41.8755616",
        "lng": "-87.6244212"
      }
    },
    {
      "year": "1882",
      "name": "Custom Officer's Cabin at Varengeville",
      "location": {
        "city": "Rotterdam",
        "country": "The Netherlands",
        "lat": "51.9244424",
        "lng": "4.47775"
      }
    },
    {
      "year": "1882",
      "name": "Eug\u00e9nie Graff (Madame Paul)",
      "location": {
        "city": "Boston",
        "country": "USA",
        "lat": "42.3554334",
        "lng": "-71.060511"
      }
    },
    {
      "year": "1882",
      "name": "Fisherman's Cottage on the Cliffs at Varengeville",
      "location": {
        "city": "Boston",
        "country": "USA",
        "lat": "42.3554334",
        "lng": "-71.060511"
      }
    },
    {
      "year": "1882",
      "name": "Fishing Nets at Pourville",
      "location": {
        "city": "The Hague",
        "country": "Netherlands",
        "lat": "52.0799838",
        "lng": "4.3113461"
      }
    },
    {
      "year": "1882",
      "name": "Rising Tide at Pourville",
      "location": {
        "city": "New York",
        "country": "USA",
        "lat": "40.7127281",
        "lng": "-74.0060152"
      }
    },
    {
      "year": "1882",
      "name": "Seashore and the Cliffs of Pourville in the Morning",
      "location": {
        "city": "Tokyo",
        "country": "Japan",
        "lat": "35.6828387",
        "lng": "139.7594549"
      }
    },
    {
      "year": "1882",
      "name": "The Beach at Pourville, Setting Sun",
      "location": {
        "city": "Paris",
        "country": "France",
        "lat": "48.8588897",
        "lng": "2.3200410217200766"
      }
    },
    {
      "year": "1882",
      "name": "The Chef (Monsieur Paul)",
      "location": {
        "city": "Vienna",
        "country": "Austria",
        "lat": "48.2083537",
        "lng": "16.3725042"
      }
    },
    {
      "year": "1882",
      "name": "The Church at Varengeville, Against the Sunlight",
      "location": {
        "city": "Birmingham",
        "country": "UK",
        "lat": "52.4796992",
        "lng": "-1.9026911"
      }
    },
    {
      "year": "1882",
      "name": "The Gorge at Varengeville",
      "location": {
        "city": "San Francisco",
        "country": "USA",
        "lat": "37.7790262",
        "lng": "-122.419906"
      }
    },
    {
      "year": "1882",
      "name": "The House of the Customs Officer, Varengeville",
      "location": {
        "city": "Boston",
        "country": "USA",
        "lat": "42.3554334",
        "lng": "-71.060511"
      }
    },
    {
      "year": "1882",
      "name": "The Rocks at Pourville, Low Tide",
      "location": {
        "city": "Rochester, NY",
        "country": "USA",
        "lat": "43.157285",
        "lng": "-77.615214"
      }
    },
    {
      "year": "1882",
      "name": "View over the Sea",
      "location": {
        "city": "Boston",
        "country": "USA",
        "lat": "42.3554334",
        "lng": "-71.060511"
      }
    },
    {
      "year": "1883",
      "name": "Boats on the Beach at \u00c9tretat",
      "location": {
        "city": "Paris",
        "country": "France",
        "lat": "48.8588897",
        "lng": "2.3200410217200766"
      }
    },
    {
      "year": "1883",
      "name": "Michel Monet in a Blue Jumper",
      "location": {
        "city": "Paris",
        "country": "France",
        "lat": "48.8588897",
        "lng": "2.3200410217200766"
      }
    },
    {
      "year": "1883",
      "name": "Rough Sea at \u00c9tretat",
      "location": {
        "city": "Lyon",
        "country": "France",
        "lat": "45.7578137",
        "lng": "4.8320114"
      }
    },
    {
      "year": "1884",
      "name": "Palm Trees at Bordighera",
      "location": {
        "city": "New York City",
        "country": "USA",
        "lat": "40.7127281",
        "lng": "-74.0060152"
      }
    },
    {
      "year": "1884",
      "name": "Bordighera",
      "location": {
        "city": "Chicago",
        "country": "USA",
        "lat": "41.8755616",
        "lng": "-87.6244212"
      }
    },
    {
      "year": "1884",
      "name": "Cap Martin",
      "location": {
        "city": "Tournai",
        "country": "Belgium",
        "lat": "50.6056458",
        "lng": "3.3878179"
      }
    },
    {
      "year": "c. 1884",
      "name": "Cap Martin, Near Menton",
      "location": {
        "city": "Boston",
        "country": "USA",
        "lat": "42.3554334",
        "lng": "-71.060511"
      }
    },
    {
      "year": "1884",
      "name": "La Corniche de Monaco",
      "location": {
        "city": "Amsterdam",
        "country": "Denmark",
        "lat": "52.3727598",
        "lng": "4.8936041"
      }
    },
    {
      "year": "1884",
      "name": "Portrait of an English Painter",
      "location": {
        "city": "Tel Aviv",
        "country": "Israel",
        "lat": "32.0852997",
        "lng": "34.7818064"
      }
    },
    {
      "year": "1884",
      "name": "Sasso Valley Sun Effect",
      "location": {
        "city": "Paris",
        "country": "France",
        "lat": "48.8588897",
        "lng": "2.3200410217200766"
      }
    },
    {
      "year": "1884",
      "name": "The Castle of Dolceacqua",
      "location": {
        "city": "Paris",
        "country": "France",
        "lat": "48.8588897",
        "lng": "2.3200410217200766"
      }
    },
    {
      "year": "1884",
      "name": "View of Bordighera, Italy",
      "location": {
        "city": "Los Angeles",
        "country": "USA",
        "lat": "34.0536909",
        "lng": "-118.242766"
      }
    },
    {
      "year": "1884",
      "name": "View of Ventimiglia",
      "location": {
        "city": "Kelvingrove",
        "country": "Scotland",
        "lat": "53.966398",
        "lng": "-0.8330483399290134"
      }
    },
    {
      "year": "1884",
      "name": "Villas at Bordighera, Italy",
      "location": {
        "city": "Paris",
        "country": "France",
        "lat": "48.8588897",
        "lng": "2.3200410217200766"
      }
    },
    {
      "year": "1884",
      "name": "Villas in Bordighera",
      "location": {
        "city": "Santa Barbara",
        "country": "USA",
        "lat": "34.4221319",
        "lng": "-119.702667"
      }
    },
    {
      "year": "c. 1884",
      "name": "Self-Portrait in his Atelier",
      "location": {
        "city": "Paris",
        "country": "France",
        "lat": "48.8588897",
        "lng": "2.3200410217200766"
      }
    },
    {
      "year": "1884 -1889",
      "name": "Haystack at Giverny",
      "location": {
        "city": "Moscow",
        "country": "Russia",
        "lat": "55.7504461",
        "lng": "37.6174943"
      }
    },
    {
      "year": "1885",
      "name": "Branch of the Seine at Giverny",
      "location": {
        "city": "Paris",
        "country": "France",
        "lat": "48.8588897",
        "lng": "2.3200410217200766"
      }
    },
    {
      "year": "1885",
      "name": "Cliffs and the Porte d'Amont, Morning Effect",
      "location": {
        "city": "Paris",
        "country": "France",
        "lat": "48.8588897",
        "lng": "2.3200410217200766"
      }
    },
    {
      "year": "1885",
      "name": "Field of Poppies, Giverny",
      "location": {
        "city": "Richmond",
        "country": "USA",
        "lat": "37.5385087",
        "lng": "-77.43428"
      }
    },
    {
      "year": "1885",
      "name": "Poppy Field near Giverny",
      "location": {
        "city": "Boston",
        "country": "USA",
        "lat": "42.3554334",
        "lng": "-71.060511"
      }
    },
    {
      "year": "1885",
      "name": "The Cliff of Aval, \u00c9tretat",
      "location": {
        "city": "Jerusalem",
        "country": "Israel",
        "lat": "31.79592425",
        "lng": "35.21198075969497"
      }
    },
    {
      "year": "1885",
      "name": "The Cliffs at \u00c9tretat",
      "location": {
        "city": "Williamstown",
        "country": "USA",
        "lat": "38.6381245",
        "lng": "-84.5604977"
      }
    },
    {
      "year": "1885",
      "name": "The Manneporte",
      "location": {
        "city": "Philadelphia",
        "country": "USA",
        "lat": "39.9527237",
        "lng": "-75.1635262"
      }
    },
    {
      "year": "1885",
      "name": "The Poppy Field near Giverny",
      "location": {
        "city": "Rouen",
        "country": "France",
        "lat": "49.4404591",
        "lng": "1.0939658"
      }
    },
    {
      "year": "1885",
      "name": "The Sailing Boat, Evening",
      "location": {
        "city": "Paris",
        "country": "France",
        "lat": "48.8588897",
        "lng": "2.3200410217200766"
      }
    },
    {
      "year": "c. 1885",
      "name": "The Cliff at \u00c9tretat",
      "location": {
        "city": "Paris",
        "country": "France",
        "lat": "48.8588897",
        "lng": "2.3200410217200766"
      }
    },
    {
      "year": "1885",
      "name": "The Departure of the Boats, Etretat",
      "location": {
        "city": "Chicago",
        "country": "USA",
        "lat": "41.8755616",
        "lng": "-87.6244212"
      }
    },
    {
      "year": "1885",
      "name": "Boats on the Beach at Etretat",
      "location": {
        "city": "Chicago",
        "country": "USA",
        "lat": "41.8755616",
        "lng": "-87.6244212"
      }
    },
    {
      "year": "c. 1885",
      "name": "The Rock Needle and the Porte d'Aval",
      "location": {
        "city": "Cambridge",
        "country": "UK",
        "lat": "52.197584649999996",
        "lng": "0.13915373736874398"
      }
    },
    {
      "year": "1886",
      "name": "Rocks at Port Goulphar, Belle-\u00cele",
      "location": {
        "city": "Chicago",
        "country": "USA",
        "lat": "41.8755616",
        "lng": "-87.6244212"
      }
    },
    {
      "year": "1886",
      "name": "Belle-\u00cele, Rain Effect",
      "location": {
        "city": "Tokyo",
        "country": "Japan",
        "lat": "35.6828387",
        "lng": "139.7594549"
      }
    },
    {
      "year": "1886",
      "name": "Etretat",
      "location": {
        "city": "Oslo",
        "country": "Norway",
        "lat": "59.9133301",
        "lng": "10.7389701"
      }
    },
    {
      "year": "1886",
      "name": "Fishing Boats Leaving \u00c9tretat",
      "location": {
        "city": "Moscow",
        "country": "Russia",
        "lat": "55.7504461",
        "lng": "37.6174943"
      }
    },
    {
      "year": "1886",
      "name": "Haystack at Giverny",
      "location": {
        "city": "St Petersburg",
        "country": "Russia",
        "lat": "27.7703796",
        "lng": "-82.6695085"
      }
    },
    {
      "year": "1886",
      "name": "Port Domois at Belle-\u00cele",
      "location": {
        "city": "Paris",
        "country": "",
        "lat": "48.8588897",
        "lng": "2.3200410217200766"
      }
    },
    {
      "year": "1886",
      "name": "Port-Domois, Belle-\u00cele",
      "location": {
        "city": "New Haven",
        "country": "USA",
        "lat": "41.3082138",
        "lng": "-72.9250518"
      }
    },
    {
      "year": "1886",
      "name": "Portrait of Polly, Fisherman at Belle-\u00cele",
      "location": {
        "city": "Paris",
        "country": "France",
        "lat": "48.8588897",
        "lng": "2.3200410217200766"
      }
    },
    {
      "year": "1886",
      "name": "Rocks at Belle I\u00cele",
      "location": {
        "city": "Paris",
        "country": "France",
        "lat": "48.8588897",
        "lng": "2.3200410217200766"
      }
    },
    {
      "year": "1886",
      "name": "Rocks at Port Coton, the Lion Rock",
      "location": {
        "city": "Cambridge",
        "country": "UK",
        "lat": "52.197584649999996",
        "lng": "0.13915373736874398"
      }
    },
    {
      "year": "1886",
      "name": "Springtime",
      "location": {
        "city": "Cambridge",
        "country": "UK",
        "lat": "52.197584649999996",
        "lng": "0.13915373736874398"
      }
    },
    {
      "year": "1886",
      "name": "Storm off the Coast of Belle-\u00cele",
      "location": {
        "city": "Paris",
        "country": "France",
        "lat": "48.8588897",
        "lng": "2.3200410217200766"
      }
    },
    {
      "year": "1886",
      "name": "The Manneporte, \u00c9tretat, II",
      "location": {
        "city": "New York",
        "country": "USA",
        "lat": "40.7127281",
        "lng": "-74.0060152"
      }
    },
    {
      "year": "1886",
      "name": "The Pyramides at Port-Coton, Belle-\u00cele-En-Mer",
      "location": {
        "city": "Copenhagen",
        "country": "Denmark",
        "lat": "55.6867243",
        "lng": "12.5700724"
      }
    },
    {
      "year": "1886",
      "name": "The Rocks at Belle-\u00cele",
      "location": {
        "city": "Moscow",
        "country": "Russia",
        "lat": "55.7504461",
        "lng": "37.6174943"
      }
    },
    {
      "year": "1886",
      "name": "Tulip Fields near Leiden",
      "location": {
        "city": "The Hague",
        "country": "Netherlands",
        "lat": "52.0799838",
        "lng": "4.3113461"
      }
    },
    {
      "year": "1886",
      "name": "Woman with a Parasol turned to the Right",
      "location": {
        "city": "Paris",
        "country": "France",
        "lat": "48.8588897",
        "lng": "2.3200410217200766"
      }
    },
    {
      "year": "1886",
      "name": "Woman with Parasol turned to the Left",
      "location": {
        "city": "Paris",
        "country": "France",
        "lat": "48.8588897",
        "lng": "2.3200410217200766"
      }
    },
    {
      "year": "1887",
      "name": "Field of Yellow Irises at Giverny",
      "location": {
        "city": "Paris",
        "country": "France",
        "lat": "48.8588897",
        "lng": "2.3200410217200766"
      }
    },
    {
      "year": "1887",
      "name": "In the Woods at Giverny: Blanche Hosched\u00e9 at her Easel with\n          Suzanne Hosched\u00e9 Reading",
      "location": {
        "city": "Los Angeles",
        "country": "California",
        "lat": "34.0536909",
        "lng": "-118.242766"
      }
    },
    {
      "year": "1887",
      "name": "On the Boat",
      "location": {
        "city": "Tokyo",
        "country": "Japan",
        "lat": "35.6828387",
        "lng": "139.7594549"
      }
    },
    {
      "year": "1887",
      "name": "Port-Goulphar, Belle-\u00cele",
      "location": {
        "city": "Sydney",
        "country": "Australia",
        "lat": "-33.8698439",
        "lng": "151.2082848"
      }
    },
    {
      "year": "1887",
      "name": "Sunlight Effect Under the Poplars",
      "location": {
        "city": "Stuttgart",
        "country": "Germany",
        "lat": "48.7784485",
        "lng": "9.1800132"
      }
    },
    {
      "year": "1887",
      "name": "The Boat",
      "location": {
        "city": "Paris",
        "country": "France",
        "lat": "48.8588897",
        "lng": "2.3200410217200766"
      }
    },
    {
      "year": "1887",
      "name": "White Clematis",
      "location": {
        "city": "Paris",
        "country": "France",
        "lat": "48.8588897",
        "lng": "2.3200410217200766"
      }
    },
    {
      "year": "1888",
      "name": "A Bend in the River Epte, near Giverny",
      "location": {
        "city": "Philadelphia",
        "country": "USA",
        "lat": "39.9527237",
        "lng": "-75.1635262"
      }
    },
    {
      "year": "1888",
      "name": "Antibes",
      "location": {
        "city": "London",
        "country": "UK",
        "lat": "51.5073219",
        "lng": "-0.1276474"
      }
    },
    {
      "year": "1888",
      "name": "Antibes",
      "location": {
        "city": "Toledo",
        "country": "USA",
        "lat": "39.8560679",
        "lng": "-4.0239568"
      }
    },
    {
      "year": "1888",
      "name": "Antibes Seen from Plateau Notre Dame",
      "location": {
        "city": "Boston",
        "country": "USA",
        "lat": "42.3554334",
        "lng": "-71.060511"
      }
    },
    {
      "year": "1888",
      "name": "Antibes: Morning",
      "location": {
        "city": "Philadelphia",
        "country": "USA",
        "lat": "39.9527237",
        "lng": "-75.1635262"
      }
    },
    {
      "year": "1888",
      "name": "Cap D'Antibes: Mistral",
      "location": {
        "city": "Boston",
        "country": "USA",
        "lat": "42.3554334",
        "lng": "-71.060511"
      }
    },
    {
      "year": "1888",
      "name": "Meadow at Giverny",
      "location": {
        "city": "St Petersburg",
        "country": "Russia",
        "lat": "27.7703796",
        "lng": "-82.6695085"
      }
    },
    {
      "year": "1889",
      "name": "Eaux Semblantes at Fresselines on the Creuse",
      "location": {
        "city": "Boston",
        "country": "USA",
        "lat": "42.3554334",
        "lng": "-71.060511"
      }
    },
    {
      "year": "1889",
      "name": "Haystack at Giverny",
      "location": {
        "city": "Jerusalem",
        "country": "Israel",
        "lat": "31.79592425",
        "lng": "35.21198075969497"
      }
    },
    {
      "year": "1889",
      "name": "Rapids on the Petite Creuse at Fresselines",
      "location": {
        "city": "New York City",
        "country": "USA",
        "lat": "40.7127281",
        "lng": "-74.0060152"
      }
    },
    {
      "year": "1889",
      "name": "Ravine of the Creuse",
      "location": {
        "city": "Boston",
        "country": "USA",
        "lat": "42.3554334",
        "lng": "-71.060511"
      }
    },
    {
      "year": "1889",
      "name": "Ravines of the Creuse at the End of the Day",
      "location": {
        "city": "Reims",
        "country": "France",
        "lat": "49.2577886",
        "lng": "4.031926"
      }
    },
    {
      "year": "1889",
      "name": "The Bridge at Vervy",
      "location": {
        "city": "Paris",
        "country": "France",
        "lat": "48.8588897",
        "lng": "2.3200410217200766"
      }
    },
    {
      "year": "1889",
      "name": "The Creuse Valley Evening Effect",
      "location": {
        "city": "Paris",
        "country": "France",
        "lat": "48.8588897",
        "lng": "2.3200410217200766"
      }
    },
    {
      "year": "1889",
      "name": "The Grand Creuse at Pont de Vervy",
      "location": {
        "city": "Philidelphia",
        "country": "USA",
        "lat": "42.6566434",
        "lng": "-82.9898413"
      }
    },
    {
      "year": "1889",
      "name": "View of the River Creuse on a Cloudy Day",
      "location": {
        "city": "Wuppertal",
        "country": "Germany",
        "lat": "51.264018",
        "lng": "7.1780374"
      }
    },
    {
      "year": "1890",
      "name": "Poppy Field",
      "location": {
        "city": "St Petersburg",
        "country": "Hermitage",
        "lat": "27.7703796",
        "lng": "-82.6695085"
      }
    },
    {
      "year": "c. 1890",
      "name": "The Seine at Port-Villez",
      "location": {
        "city": "Columbus",
        "country": "USA",
        "lat": "39.9622601",
        "lng": "-83.0007065"
      }
    },
    {
      "year": "c. 1890",
      "name": "Boating on the Epte",
      "location": {
        "city": "Sao Paulo",
        "country": "Brazil",
        "lat": "-23.5506507",
        "lng": "-46.6333824"
      }
    },
    {
      "year": "1891",
      "name": "Haystack at Sunset near Giverny",
      "location": {
        "city": "Boston",
        "country": "USA",
        "lat": "42.3554334",
        "lng": "-71.060511"
      }
    },
    {
      "year": "1891",
      "name": "Haystack in Winter",
      "location": {
        "city": "Boston",
        "country": "USA",
        "lat": "42.3554334",
        "lng": "-71.060511"
      }
    },
    {
      "year": "1891",
      "name": "Haystack, Winter, Giverny",
      "location": {
        "city": "Chicago",
        "country": "USA",
        "lat": "41.8755616",
        "lng": "-87.6244212"
      }
    },
    {
      "year": "1891",
      "name": "Haystacks: Snow Effect",
      "location": {
        "city": "Edinburgh",
        "country": "Scotland",
        "lat": "55.9533456",
        "lng": "-3.1883749"
      }
    },
    {
      "year": "1891",
      "name": "Poplars",
      "location": {
        "city": "New York",
        "country": "USA",
        "lat": "40.7127281",
        "lng": "-74.0060152"
      }
    },
    {
      "year": "1891",
      "name": "Stack in Sunlight",
      "location": {
        "city": "Z\u00fcrich",
        "country": "Switzerland",
        "lat": "47.3744489",
        "lng": "8.5410422"
      }
    },
    {
      "year": "1892",
      "name": "Rouen Cathedral: The Portal (Harmony in Brown)",
      "location": {
        "city": "Paris",
        "country": "France",
        "lat": "48.8588897",
        "lng": "2.3200410217200766"
      }
    },
    {
      "year": "1892 -1894",
      "name": "Rouen Cathedral, Symphony in Grey and Rose",
      "location": {
        "city": "Cardiff",
        "country": "UK",
        "lat": "51.4816546",
        "lng": "-3.1791934"
      }
    },
    {
      "year": "1893",
      "name": "Rouen Cathedral: The Portal",
      "location": {
        "city": "Moscow",
        "country": "Russia",
        "lat": "55.7504461",
        "lng": "37.6174943"
      }
    },
    {
      "year": "1893",
      "name": "Rouen Cathedral: The Portal (Harmony in Blue)",
      "location": {
        "city": "Paris",
        "country": "France",
        "lat": "48.8588897",
        "lng": "2.3200410217200766"
      }
    },
    {
      "year": "1893",
      "name": "Rouen Cathedral: The Portal and the Tour d'Albane in the Sunlight",
      "location": {
        "city": "Paris",
        "country": "France",
        "lat": "48.8588897",
        "lng": "2.3200410217200766"
      }
    },
    {
      "year": "1894",
      "name": "Church at Vernon",
      "location": {
        "city": "New York",
        "country": "USA",
        "lat": "40.7127281",
        "lng": "-74.0060152"
      }
    },
    {
      "year": "1894",
      "name": "Rouen Cathedral, the Fa\u00e7ade in Sunlight",
      "location": {
        "city": "Williamstown",
        "country": "USA",
        "lat": "38.6381245",
        "lng": "-84.5604977"
      }
    },
    {
      "year": "1894",
      "name": "Rouen Cathedral, the Fa\u00e7ade, Morning Effect",
      "location": {
        "city": "Essen",
        "country": "Germany",
        "lat": "51.4582235",
        "lng": "7.0158171"
      }
    },
    {
      "year": "1894",
      "name": "Rouen Cathedral, The West Portal, Dull Weather",
      "location": {
        "city": "Paris",
        "country": "France",
        "lat": "48.8588897",
        "lng": "2.3200410217200766"
      }
    },
    {
      "year": "1894",
      "name": "Rouen Cathedral, West Fa\u00e7ade",
      "location": {
        "city": "Washington DC",
        "country": "USA",
        "lat": "38.8950368",
        "lng": "-77.0365427"
      }
    },
    {
      "year": "1894",
      "name": "Rouen Cathedral, West Fa\u00e7ade, Sunlight",
      "location": {
        "city": "Washington DC",
        "country": "USA",
        "lat": "38.8950368",
        "lng": "-77.0365427"
      }
    },
    {
      "year": "1894",
      "name": "Rouen Cathedral, West Portal, Grey Weather",
      "location": {
        "city": "Rouen",
        "country": "France",
        "lat": "49.4404591",
        "lng": "1.0939658"
      }
    },
    {
      "year": "1894",
      "name": "The Seine at Port-Villez",
      "location": {
        "city": "Rouen",
        "country": "France",
        "lat": "49.4404591",
        "lng": "1.0939658"
      }
    },
    {
      "year": "1894",
      "name": "The Seine at Port-Villez, Evening Effect",
      "location": {
        "city": "Paris",
        "country": "France",
        "lat": "48.8588897",
        "lng": "2.3200410217200766"
      }
    },
    {
      "year": "1895",
      "name": "Garden at Giverny",
      "location": {
        "city": "Zurich",
        "country": "Switzerland",
        "lat": "47.3744489",
        "lng": "8.5410422"
      }
    },
    {
      "year": "1895",
      "name": "Mount Kolsaas, Norway",
      "location": {
        "city": "Paris",
        "country": "France",
        "lat": "48.8588897",
        "lng": "2.3200410217200766"
      }
    },
    {
      "year": "1895",
      "name": "Norway, Red Houses at Bjornegaard",
      "location": {
        "city": "Paris",
        "country": "France",
        "lat": "48.8588897",
        "lng": "2.3200410217200766"
      }
    },
    {
      "year": "1897",
      "name": "Branch of the Seine near Giverny\u00a0",
      "location": {
        "city": "Boston",
        "country": "USA",
        "lat": "42.3554334",
        "lng": "-71.060511"
      }
    },
    {
      "year": "1897",
      "name": "Cliffs at Varengeville",
      "location": {
        "city": "Le Havre",
        "country": "France",
        "lat": "49.4938975",
        "lng": "0.1079732"
      }
    },
    {
      "year": "1897",
      "name": "Morning on the Seine",
      "location": {
        "city": "Amherst",
        "country": "USA",
        "lat": "42.3685658",
        "lng": "-72.505714"
      }
    },
    {
      "year": "1897",
      "name": "Morning on the Seine near Giverny",
      "location": {
        "city": "Boston",
        "country": "USA",
        "lat": "42.3554334",
        "lng": "-71.060511"
      }
    },
    {
      "year": "1897",
      "name": "The Cliffs near Dieppe",
      "location": {
        "city": "Paris",
        "country": "France",
        "lat": "48.8588897",
        "lng": "2.3200410217200766"
      }
    },
    {
      "year": "1897",
      "name": "The Seine at Giverny, Morning Mists",
      "location": {
        "city": "Raleigh",
        "country": "USA",
        "lat": "35.7803977",
        "lng": "-78.6390989"
      }
    },
    {
      "year": "1899",
      "name": "The Water Lily Pond: Harmony in Green",
      "location": {
        "city": "Princeton",
        "country": "USA",
        "lat": "40.3492744",
        "lng": "-74.6592958"
      }
    },
    {
      "year": "1899",
      "name": "Water Lilies and Japanese Bridge",
      "location": {
        "city": "Princeton",
        "country": "USA",
        "lat": "40.3492744",
        "lng": "-74.6592958"
      }
    },
    {
      "year": "1899",
      "name": "Water Lilies and Japanese Bridge",
      "location": {
        "city": "New York",
        "country": "USA",
        "lat": "40.7127281",
        "lng": "-74.0060152"
      }
    },
    {
      "year": "1899",
      "name": "Water Lily Pond",
      "location": {
        "city": "Philadelphia",
        "country": "USA",
        "lat": "39.9527237",
        "lng": "-75.1635262"
      }
    },
    {
      "year": "1899",
      "name": "White Water Lilies",
      "location": {
        "city": "Moscow",
        "country": "Russia",
        "lat": "55.7504461",
        "lng": "37.6174943"
      }
    },
    {
      "year": "1899 -1901",
      "name": "Charing Cross Bridge: Fog",
      "location": {
        "city": "Toronto",
        "country": "Canada",
        "lat": "43.6534817",
        "lng": "-79.3839347"
      }
    },
    {
      "year": "1899 -1901",
      "name": "Waterloo Bridge in Fog",
      "location": {
        "city": "Moscow",
        "country": "Russia",
        "lat": "55.7504461",
        "lng": "37.6174943"
      }
    },
    {
      "year": "1899 -1901",
      "name": "Waterloo Bridge, Misty Morning",
      "location": {
        "city": "Hamburg",
        "country": "Germany",
        "lat": "53.550341",
        "lng": "10.000654"
      }
    },
    {
      "year": "1900",
      "name": "Pool of Water Lilies",
      "location": {
        "city": "Chicago",
        "country": "USA",
        "lat": "41.8755616",
        "lng": "-87.6244212"
      }
    },
    {
      "year": "1900",
      "name": "Water Lily Pond: Pink Harmony",
      "location": {
        "city": "Paris",
        "country": "France",
        "lat": "48.8588897",
        "lng": "2.3200410217200766"
      }
    },
    {
      "year": "1900",
      "name": "Waterloo Bridge",
      "location": {
        "city": "Santa Barbara",
        "country": "USA",
        "lat": "34.4221319",
        "lng": "-119.702667"
      }
    },
    {
      "year": "1900",
      "name": "Waterloo Bridge, Cloudy Day",
      "location": {
        "city": "Dublin",
        "country": "Ireland",
        "lat": "53.3498006",
        "lng": "-6.2602964"
      }
    },
    {
      "year": "1900 -1901",
      "name": "Houses of Parliament, Sunset",
      "location": {
        "city": "Zurich",
        "country": "Switzerland",
        "lat": "47.3744489",
        "lng": "8.5410422"
      }
    },
    {
      "year": "1900 -1901",
      "name": "Parliament, Reflections on the Thames",
      "location": {
        "city": "Paris",
        "country": "France",
        "lat": "48.8588897",
        "lng": "2.3200410217200766"
      }
    },
    {
      "year": "1900 -1901",
      "name": "The Houses of Parliament",
      "location": {
        "city": "New York",
        "country": "USA",
        "lat": "40.7127281",
        "lng": "-74.0060152"
      }
    },
    {
      "year": "1900 -1901",
      "name": "The Houses of Parliament, Stormy Sky",
      "location": {
        "city": "Lille",
        "country": "France",
        "lat": "50.6365654",
        "lng": "3.0635282"
      }
    },
    {
      "year": "1901",
      "name": "Waterloo Bridge, Morning Fog",
      "location": {
        "city": "Philadelphia",
        "country": "USA",
        "lat": "39.9527237",
        "lng": "-75.1635262"
      }
    },
    {
      "year": "1902",
      "name": "A Pathway in Monet's Garden, Giverny",
      "location": {
        "city": "Vienna",
        "country": "Austria",
        "lat": "48.2083537",
        "lng": "16.3725042"
      }
    },
    {
      "year": "1902",
      "name": "Charing Cross Bridge, Smoke in the Fog",
      "location": {
        "city": "Paris",
        "country": "France",
        "lat": "48.8588897",
        "lng": "2.3200410217200766"
      }
    },
    {
      "year": "1903",
      "name": "Charing Cross Bridge",
      "location": {
        "city": "St. Louis",
        "country": "USA",
        "lat": "38.6319657",
        "lng": "-90.2428756"
      }
    },
    {
      "year": "1903",
      "name": "Houses of Parliament, Effect of Sunlight",
      "location": {
        "city": "New York",
        "country": "USA",
        "lat": "40.7127281",
        "lng": "-74.0060152"
      }
    },
    {
      "year": "1903",
      "name": "Study of Waterloo Bridge at Dusk",
      "location": {
        "city": "Washington DC",
        "country": "USA",
        "lat": "38.8950368",
        "lng": "-77.0365427"
      }
    },
    {
      "year": "1903",
      "name": "Water Lilies",
      "location": {
        "city": "Tokyo",
        "country": "Japan",
        "lat": "35.6828387",
        "lng": "139.7594549"
      }
    },
    {
      "year": "1903",
      "name": "Waterloo Bridge, Sun in the Fog",
      "location": {
        "city": "Ottawa",
        "country": "Canada",
        "lat": "45.4208777",
        "lng": "-75.6901106"
      }
    },
    {
      "year": "1904",
      "name": "Seagulls over the Houses of Parliament",
      "location": {
        "city": "Moscow",
        "country": "Russia",
        "lat": "55.7504461",
        "lng": "37.6174943"
      }
    },
    {
      "year": "",
      "name": "The Houses of Parliament, London, with the Sun Breaking Through the\n          Fog",
      "location": {
        "city": "Zurich",
        "country": "Switzerland",
        "lat": "47.3744489",
        "lng": "8.5410422"
      }
    },
    {
      "year": "1905",
      "name": "Reflections on the Thames",
      "location": {
        "city": "Paris",
        "country": "France",
        "lat": "48.8588897",
        "lng": "2.3200410217200766"
      }
    },
    {
      "year": "1906",
      "name": "Water Lilies",
      "location": {
        "city": "Rome",
        "country": "Italy",
        "lat": "41.8933203",
        "lng": "12.4829321"
      }
    },
    {
      "year": "1907",
      "name": "Water Lilies (Nympheas)",
      "location": {
        "city": "Jerusalem",
        "country": "Israel",
        "lat": "31.79592425",
        "lng": "35.21198075969497"
      }
    },
    {
      "year": "1908",
      "name": "Gondola in Venice",
      "location": {
        "city": "Nantes",
        "country": "France",
        "lat": "47.2186371",
        "lng": "-1.5541362"
      }
    },
    {
      "year": "1908",
      "name": "Palazzo Contarini, Venice",
      "location": {
        "city": "St. Gallen",
        "country": "Switzerland",
        "lat": "47.4250593",
        "lng": "9.3765878"
      }
    },
    {
      "year": "1908",
      "name": "San Giorgio Maggiore at Dusk",
      "location": {
        "city": "Cardiff",
        "country": "UK",
        "lat": "51.4816546",
        "lng": "-3.1791934"
      }
    },
    {
      "year": "1908",
      "name": "The Ducal Palace, Venice",
      "location": {
        "city": "New York",
        "country": "USA",
        "lat": "40.7127281",
        "lng": "-74.0060152"
      }
    },
    {
      "year": "1908",
      "name": "Venice Palazzo da Mula",
      "location": {
        "city": "Washington DC",
        "country": "USA",
        "lat": "38.8950368",
        "lng": "-77.0365427"
      }
    },
    {
      "year": "1914",
      "name": "Water Lilies: Green Reflection",
      "location": {
        "city": "Paris",
        "country": "France",
        "lat": "48.8588897",
        "lng": "2.3200410217200766"
      }
    },
    {
      "year": "1914 -1917",
      "name": "Water Lilies",
      "location": {
        "city": "Paris",
        "country": "France",
        "lat": "48.8588897",
        "lng": "2.3200410217200766"
      }
    },
    {
      "year": "1914 -1917",
      "name": "Water Lilies and Agapanthus",
      "location": {
        "city": "Paris",
        "country": "France",
        "lat": "48.8588897",
        "lng": "2.3200410217200766"
      }
    },
    {
      "year": "1914 -1917",
      "name": "Water Lilies: Harmony in Blue",
      "location": {
        "city": "Paris",
        "country": "France",
        "lat": "48.8588897",
        "lng": "2.3200410217200766"
      }
    },
    {
      "year": "1914 -1917",
      "name": "Yellow and Lilac Water Lilies",
      "location": {
        "city": "Toledo",
        "country": "USA",
        "lat": "39.8560679",
        "lng": "-4.0239568"
      }
    },
    {
      "year": "1914 -1918",
      "name": "Water Lilies: Morning",
      "location": {
        "city": "Paris",
        "country": "France",
        "lat": "48.8588897",
        "lng": "2.3200410217200766"
      }
    },
    {
      "year": "1914 -1918",
      "name": "Water Lilies: Morning with Weeping Willows",
      "location": {
        "city": "Paris",
        "country": "France",
        "lat": "48.8588897",
        "lng": "2.3200410217200766"
      }
    },
    {
      "year": "1914 -1918",
      "name": "Water Lilies: Two Weeping Willows",
      "location": {
        "city": "Paris",
        "country": "France",
        "lat": "48.8588897",
        "lng": "2.3200410217200766"
      }
    },
    {
      "year": "1915",
      "name": "Water Lilies",
      "location": {
        "city": "Paris",
        "country": "France",
        "lat": "48.8588897",
        "lng": "2.3200410217200766"
      }
    },
    {
      "year": "1915",
      "name": "Water Lilies",
      "location": {
        "city": "Paris",
        "country": "France",
        "lat": "48.8588897",
        "lng": "2.3200410217200766"
      }
    },
    {
      "year": "1915 -1926",
      "name": "The Water Lilies - The Clouds",
      "location": {
        "city": "Paris",
        "country": "France",
        "lat": "48.8588897",
        "lng": "2.3200410217200766"
      }
    },
    {
      "year": "1915 -1926",
      "name": "Water Lilies at Sunset",
      "location": {
        "city": "Paris",
        "country": "France",
        "lat": "48.8588897",
        "lng": "2.3200410217200766"
      }
    },
    {
      "year": "1916 -1919",
      "name": "Nympheas",
      "location": {
        "city": "Paris",
        "country": "France",
        "lat": "48.8588897",
        "lng": "2.3200410217200766"
      }
    },
    {
      "year": "1916 -1919",
      "name": "Water Lilies",
      "location": {
        "city": "Paris",
        "country": "France",
        "lat": "48.8588897",
        "lng": "2.3200410217200766"
      }
    },
    {
      "year": "1916 -1919",
      "name": "Weeping Willow and the Water Lily Pond",
      "location": {
        "city": "Paris",
        "country": "France",
        "lat": "48.8588897",
        "lng": "2.3200410217200766"
      }
    },
    {
      "year": "1917",
      "name": "Self-Portrait",
      "location": {
        "city": "Paris",
        "country": "France",
        "lat": "48.8588897",
        "lng": "2.3200410217200766"
      }
    },
    {
      "year": "1917 -1920\u00a0",
      "name": "Water Lilies",
      "location": {
        "city": "Paris",
        "country": "France",
        "lat": "48.8588897",
        "lng": "2.3200410217200766"
      }
    },
    {
      "year": "1918 -1919",
      "name": "Weeping Willow",
      "location": {
        "city": "Paris",
        "country": "France",
        "lat": "48.8588897",
        "lng": "2.3200410217200766"
      }
    },
    {
      "year": "1918 -1924",
      "name": "The Japanese Bridge",
      "location": {
        "city": "Paris",
        "country": "France",
        "lat": "48.8588897",
        "lng": "2.3200410217200766"
      }
    },
    {
      "year": "1918 -1924",
      "name": "The Japanese Bridge",
      "location": {
        "city": "Paris",
        "country": "France",
        "lat": "48.8588897",
        "lng": "2.3200410217200766"
      }
    },
    {
      "year": "1918 -1924",
      "name": "The Japanese Bridge at Giverny",
      "location": {
        "city": "Paris",
        "country": "France",
        "lat": "48.8588897",
        "lng": "2.3200410217200766"
      }
    },
    {
      "year": "1918 -1924",
      "name": "The Japanese Bridge at Giverny",
      "location": {
        "city": "Paris",
        "country": "France",
        "lat": "48.8588897",
        "lng": "2.3200410217200766"
      }
    },
    {
      "year": "1919",
      "name": "Weeping Willows",
      "location": {
        "city": "Paris",
        "country": "France",
        "lat": "48.8588897",
        "lng": "2.3200410217200766"
      }
    },
    {
      "year": "1919",
      "name": "Wisteria",
      "location": {
        "city": "Paris",
        "country": "France",
        "lat": "48.8588897",
        "lng": "2.3200410217200766"
      }
    },
    {
      "year": "1919 -1920",
      "name": "Wisteria",
      "location": {
        "city": "The Hague",
        "country": "Netherlands",
        "lat": "52.0799838",
        "lng": "4.3113461"
      }
    },
    {
      "year": "c. 1919 -1920",
      "name": "Wisteria (Glycines)",
      "location": {
        "city": "Oberlin College",
        "country": "USA",
        "lat": "41.2959178",
        "lng": "-82.22146700795557"
      }
    },
    {
      "year": "1920 -1922",
      "name": "The Path with Rose Trellises at Giverny",
      "location": {
        "city": "Paris",
        "country": "France",
        "lat": "48.8588897",
        "lng": "2.3200410217200766"
      }
    },
    {
      "year": "1920 -1926",
      "name": "Clear Morning with Willows",
      "location": {
        "city": "Paris",
        "country": "France",
        "lat": "48.8588897",
        "lng": "2.3200410217200766"
      }
    },
    {
      "year": "1920 -1926",
      "name": "Detail of Water Lilies: Clouds",
      "location": {
        "city": "Paris",
        "country": "France",
        "lat": "48.8588897",
        "lng": "2.3200410217200766"
      }
    },
    {
      "year": "1920 -1926",
      "name": "Water Lilies: Morning",
      "location": {
        "city": "Paris",
        "country": "France",
        "lat": "48.8588897",
        "lng": "2.3200410217200766"
      }
    },
    {
      "year": "1920 -1926",
      "name": "Water Lilies: Reflections of Trees",
      "location": {
        "city": "Paris",
        "country": "France",
        "lat": "48.8588897",
        "lng": "2.3200410217200766"
      }
    },
    {
      "year": "c. 1920 -1926",
      "name": "Water Lilies",
      "location": {
        "city": "Norfolk",
        "country": "USA",
        "lat": "52.666667",
        "lng": "1"
      }
    },
    {
      "year": "1922 -1924",
      "name": "The Artist's House from the Rose Garden",
      "location": {
        "city": "Paris",
        "country": "France",
        "lat": "48.8588897",
        "lng": "2.3200410217200766"
      }
    },
    {
      "year": "1923",
      "name": "Garden at Giverny",
      "location": {
        "city": "Grenoble",
        "country": "France",
        "lat": "45.1875602",
        "lng": "5.7357819"
      }
    },
    {
      "year": "c. 1923",
      "name": "Japanese Bridge at Giverny",
      "location": {
        "city": "Minneapolis",
        "country": "USA",
        "lat": "44.9772995",
        "lng": "-93.2654692"
      }
    },
    {
      "year": "1924 -1925",
      "name": "Yellow and Purple Irises",
      "location": {
        "city": "Paris",
        "country": "France",
        "lat": "48.8588897",
        "lng": "2.3200410217200766"
      }
    },
    {
      "year": "1924 -1925",
      "name": "The Roses",
      "location": {
        "city": "Paris",
        "country": "France",
        "lat": "48.8588897",
        "lng": "2.3200410217200766"
      }
    }
  ]
}
